[{"latitude": 19.0603228, "longitude": 72.83474055233081, "location": "Rabat, Rabat-Sal\u00e9-K\u00e9nitra, Maroc", "company_count": {
  "Effyis Partners": 1,
  "Institut National des Postes et T\u00e9l\u00e9communications \u00b7 Ind": 1
}}, {"latitude": 30.3997194, "longitude": -86.47053734091892, "location": "DSI", "company_count": {"Soci\u00e9t\u00e9 G\u00e9n\u00e9ra": 1}}, {"latitude": 31.6258257, "longitude": -7.9891608, "location": "Casablanca Metropolitan Area", "company_count": {"J2CD Marrakech": 1}}, {"latitude": 33.2627128, "longitude": -7.9639028, "location": "Casablanca - Settat, Maroc", "company_count": {"BI-SKILLS": 1, "Fidaroc Grant Thornton": 1, "Effyis Group": 1}}, {"latitude": 33.54288375, "longitude": -7.640472784108402, "location": "Technopark, Casablanca", "company_count": {"I-Gouv": 1}}, {"latitude": 33.5675527, "longitude": -7.618756606822727, "location": "Pr\u00e9fecture de Casablanca, Morocco", "company_count": {"Scale": 1}}, {"latitude": 33.5950627, "longitude": -7.6187768, "location": "Casablanca, Casablanca-Settat, Maroc", "company_count": {"RIBATIS": 2, "BMCE Bank": 1}}, {"latitude": 33.9204332, "longitude": -6.3676093, "location": "Rabat-Sal\u00e9-K\u00e9nitra, Maroc", "company_count": {"Haut Commissariat au Plan": 1}}, {"latitude": 33.9667424, "longitude": -6.842641008106102, "location": "Rabat Prefecture, Morocco", "company_count": {"Soft Centre": 1}}, {"latitude": 34.022405, "longitude": -6.834543, "location": "Casablanca, Maroc", "company_count": {"DXC Technology Morocco": 1, "ANRT": 1, "ifnilink": 1}}, {"latitude": 34.2861361, "longitude": -4.153565199951867, "location": "Province de Taza, Morocco", "company_count": {"Universit\u00e9 Sidi Med Ben Abdellah": 1}}]