[{"latitude": 30.42203615, "longitude": -9.55950887633639, "location": "Agadir ", "company_count": {"St\u00e9 SOUSS Gaz": 1}}, {"latitude": 30.64438515, "longitude": -9.601830678196873, "location": "Pr\u00e9fecture d\u2019Agadir Ida-Outanane, Morocco", "company_count": {"AGRIDATA CONSULTING": 1}}, {"latitude": 31.1728205, "longitude": -7.3362482, "location": "Morocco", "company_count": {"Deloitte": 1}}, {"latitude": 33.5675527, "longitude": -7.618756606822727, "location": "Pr\u00e9fecture de Casablanca, Morocco", "company_count": {"OCP SA": 1}}, {"latitude": 34.022405, "longitude": -6.834543, "location": "Rabat, Maroc", "company_count": {"Netopia-Solutions": 1, "Henceforth": 1, "TGR - Minist\u00e8re de finance": 1}}, {"latitude": 48.8976716, "longitude": 2.1026594, "location": "Le Pecq, \u00cele-de-France, France", "company_count": {"CULTYDATA": 1}}]