[
  {
    "latitude": 11.568271,
    "longitude": 104.9224426,
    "location": "Maroc,Rabat",
    "company_count": { "Kynex | Smart Digital Business Solutions": 1 }
  },
  {
    "latitude": 30.3927088,
    "longitude": -9.2132982,
    "location": "Ouled Teima",
    "company_count": { "Banque Populaire du Maroc ": 1 }
  },
  {
    "latitude": 30.42203615,
    "longitude": -9.55950887633639,
    "location": "AGADIR",
    "company_count": {
      "Marsa Maroc": 1,
      "SOFTISSIME": 1,
      "ADI SOLAR ENERGY": 1,
      "Azura Group": 1,
      "Searchcept": 1
    }
  },
  {
    "latitude": 30.64438515,
    "longitude": -9.601830678196873,
    "location": "Pr\u00e9fecture d\u2019Agadir Ida-Outanane, Morocco",
    "company_count": {
      "Offshore Valley, Outsourcing,Development,Call Center \u00b7 Tem": 1
    }
  },
  {
    "latitude": 31.1728205,
    "longitude": -7.3362482,
    "location": "Maroc",
    "company_count": {
      "1 Minute Script": 1,
      "HPS": 1,
      "INTELLCAP CORP": 1,
      "Marine Royale": 1,
      "NEO TECH IT": 1,
      "Nokia solutions and n": 1,
      "Intelcia IT Solutions": 1,
      "OMNILOG SAS": 1,
      "Queria Services": 1,
      "Huawei Northern Africa Region": 1,
      "Siemens Digital Industries Software": 1
    }
  },
  {
    "latitude": 31.6258257,
    "longitude": -7.9891608,
    "location": "Marrakesh-Safi, Morocco",
    "company_count": { "AFRICA OFFICE": 1 }
  },
  {
    "latitude": 31.6277862,
    "longitude": -7.9833943,
    "location": "Safi, Marrakesh-Safi, Morocco",
    "company_count": { "UNIVERT": 1 }
  },
  {
    "latitude": 31.7203273,
    "longitude": -8.154168354683915,
    "location": "Pr\u00e9fecture de Marrakech, Morocco",
    "company_count": { "SAVOY LE GRAND HOTEL MARRAKECH": 1, "UPSYS": 1 }
  },
  {
    "latitude": 32.334193,
    "longitude": -6.353335,
    "location": "Beni Mellal, B\u00e9ni Mellal-Kh\u00e9nifra, Morocco",
    "company_count": { "Hassy Center": 1 }
  },
  {
    "latitude": 33.07389315,
    "longitude": -8.376641304207201,
    "location": "Lannion, Bretagne, France",
    "company_count": { "OCP SA": 1 }
  },
  {
    "latitude": 33.2627128,
    "longitude": -7.9639028,
    "location": "Casablanca - Settat, Maroc",
    "company_count": {
      "CENTRE FOR EXCELLENCE IN INFORMATION TECHNOLOGY": 1,
      "OCP S.A": 1,
      "Payment Center For Africa - PCA": 1,
      "Effyis Group": 1,
      "Attijariwafa bank": 1,
      "Schneider Electric": 1
    }
  },
  {
    "latitude": 33.5675527,
    "longitude": -7.618756606822727,
    "location": "Casablanca, Casablanca-Settat, Maroc",
    "company_count": {
      "CDSInfo": 1,
      "Altran": 1,
      "Atlanta-Compagnie D'Assurances et de Reassurances": 1,
      "Banque Centrale Populaire - BCP": 3,
      "Nimble Ways": 1,
      "Soci\u00e9t\u00e9 G\u00e9n\u00e9rale - Africa Technologies & Services": 3,
      "Adria Business & Te": 1,
      "EBC Sytem Morocco": 1,
      "ValueIT": 1
    }
  },
  {
    "latitude": 33.5950627,
    "longitude": -7.6187768,
    "location": " Casablanca, Morocco",
    "company_count": {
      "Huawei Technologies Enterprise": 1,
      "Oracle": 1,
      "AMAYNOTECH": 1,
      "SoftyDev": 1,
      "FinaMaze": 1,
      "inwi": 1,
      "Payment Center For Africa - PCA": 1,
      "ilem Group": 1,
      "Corporate Software": 1,
      "MTech Invest": 1,
      "Payment Center For Africa": 1,
      "NEO TECH IT": 1,
      "Matious Digital": 1,
      "SisPay": 1,
      "CASH PLUS": 1,
      "Annour Tech": 1,
      "Bouygues Construction": 1,
      "Leyton": 1,
      "SAFILAIT": 1,
      "Archipel Digital": 1,
      "INSOFT": 1,
      "Adria Business & Technology": 1
    }
  },
  {
    "latitude": 33.6958383,
    "longitude": -7.3893292,
    "location": "Casablanca, Casablanca-Settat, Maroc",
    "company_count": { "Vivo Energy": 1, "Matious Digital": 1 }
  },
  {
    "latitude": 33.897877,
    "longitude": -5.5320345,
    "location": "Tanger, Morocco",
    "company_count": { "Lafar": 1 }
  },
  {
    "latitude": 33.917166,
    "longitude": -6.923804,
    "location": "T\u00e9mara, Rabat-Sal\u00e9-K\u00e9nitra, Maroc",
    "company_count": { "AdelphaTech": 1, "Prestige Informatique": 1 }
  },
  {
    "latitude": 33.9204332,
    "longitude": -6.3676093,
    "location": "Casablanca Prefecture, Morocco",
    "company_count": {
      "Henceforth": 1,
      "Lear Corporation": 1,
      "Graviton.ma": 1,
      "ANRT": 1,
      "Intellcap": 1,
      "Masarat App": 1,
      "Omniconsulting \u00b7 Tem": 1,
      "Siemens Digital Industries Software": 1
    }
  },
  {
    "latitude": 33.95826505,
    "longitude": -6.871280614128082,
    "location": "RABAT AGDAL MAROC ",
    "company_count": { "NICKEL IT SARL": 1 }
  },
  {
    "latitude": 33.9667424,
    "longitude": -6.842641008106102,
    "location": "Casablanca, Casablanca-Settat, Morocco",
    "company_count": {
      "Octeria": 1,
      "MINISTERE DE LA COMMU": 1,
      "Digimind": 1,
      "FY C": 1,
      "M": 1,
      "NolimitMaroc": 1,
      "ONHYM": 1,
      "Synapticiel": 1,
      "TALBO": 1,
      "Exceliacom Solutions": 1,
      "SIGE": 1,
      "Minist\u00e8re de la jeunesse, de la Culture et de la Communication": 1,
      "Moroccan economists forum": 1,
      "Office National des Chemins de Fer (ONCF)": 2,
      "NEOSYS": 1
    }
  },
  {
    "latitude": 33.974384099999995,
    "longitude": -6.655698376097575,
    "location": "Pr\u00e9fecture de Sal\u00e9, Morocco",
    "company_count": { "NOVEC sa": 1 }
  },
  {
    "latitude": 34.019705349999995,
    "longitude": -6.834463577500664,
    "location": "TechnoPark Rabat",
    "company_count": { "F": 1 }
  },
  {
    "latitude": 34.022405,
    "longitude": -6.834543,
    "location": " Rabat, Morocco",
    "company_count": {
      "ma": 1,
      "Fondation MAScIR": 1,
      "Digimind": 1,
      "ENOVART": 1,
      "INTELLCAP SARL": 1,
      "Stage PFE chez STS/": 1,
      "Henceforth": 1,
      "Minist\u00e8re de la communication, Royaume du Maroc": 1,
      "4D Lo": 1,
      "Brid": 1,
      "Centre National des recherches techniques et scientifiques": 1,
      "Huawei Tech": 1,
      "Minist\u00e8re de la communication ": 1,
      "STRS Lab, INPT": 1,
      "Institut national des postes et t\u00e9l\u00e9communications (INPT)": 5,
      "Centre doctoral de l\u2019Institut National des Postes et T\u00e9l\u00e9communications du Maroc": 1,
      "INGECYS SOLUTIONS": 1,
      "4D": 1,
      "Centex": 1,
      "Gaya Pharmaceuticals - CRO": 1,
      "Minist\u00e8re de la commu": 1,
      "soci\u00e9t\u00e9 NURV \u00b7 Tem": 1,
      "DXC Technology": 1,
      "FY COMPUTING": 1,
      "Lear Corporation": 1,
      "AIOX Labs (We are Hiring)": 1,
      "ENOVA R&T": 1,
      "INTELLCAP CORP": 1,
      "INTELLCAP Corp": 1,
      "Minist\u00e8re de la Sant\u00e9 Publique Maroc": 1,
      "Office Du D\u00e9veloppement De La Cooperation (ODCO)": 1,
      "Orange Maroc": 1,
      "SMART MAHAL": 1,
      "Siemens EDA (Siemens Digital Industries Software)": 1,
      " Stage technique \u00e0 INTELLCAP": 1,
      "SoftCentre": 2
    }
  },
  {
    "latitude": 34.044889,
    "longitude": -6.814017,
    "location": "Sale, Rabat-Sal\u00e9-Kenitra, Morocco",
    "company_count": { "Lear Corporation": 1 }
  },
  {
    "latitude": 34.26457,
    "longitude": -6.570169,
    "location": "Maroc",
    "company_count": { "Stellantis": 1 }
  },
  {
    "latitude": 34.2861361,
    "longitude": -4.153565199951867,
    "location": "Province de Taza, Morocco",
    "company_count": { "Universit\u00e9 Sidi Med Ben Abdellah": 1 }
  },
  {
    "latitude": 34.5565311,
    "longitude": -6.356485164134604,
    "location": "Province de K\u00e9nitra, Morocco",
    "company_count": { "AIC M\u00e9t": 1 }
  },
  {
    "latitude": 34.966324150000005,
    "longitude": -4.185488310932693,
    "location": "Province d\u2019Al Hoce\u00efma, Morocco",
    "company_count": { "Agence Urbaine d'AL": 1 }
  },
  {
    "latitude": 35.202941,
    "longitude": -5.5510167,
    "location": "Tanger-Tetouan-Al Hoceima, Morocco",
    "company_count": { "DENSO": 1, "CIRES TECHNOLOGIES S.A": 1 }
  },
  {
    "latitude": 35.4668038,
    "longitude": -6.0327709,
    "location": "Tanger-Asilah Prefecture, Morocco",
    "company_count": { "SmartSource Maroc": 1 }
  },
  {
    "latitude": 35.777103,
    "longitude": -5.803792,
    "location": "Abidjan, C\u00f4te d'Ivoire",
    "company_count": {
      "Smart Automation Technologies": 1,
      "Naturgy": 1,
      "CIRES TECHNOLOGIES S.A": 1
    }
  },
  {
    "latitude": 37.471554,
    "longitude": 21.6280349,
    "location": "Casablanca et p\u00e9riph\u00e9rie",
    "company_count": { "CGI": 1 }
  },
  {
    "latitude": 43.0059455,
    "longitude": -123.8925908,
    "location": "Remote",
    "company_count": { "ADD_Officiel": 1 }
  },
  {
    "latitude": 43.5836,
    "longitude": 7.10905,
    "location": "Antibes, Provence-Alpes-C\u00f4te d\u2019Azur, France",
    "company_count": { "Cambium Systems": 1 }
  },
  {
    "latitude": 43.6112422,
    "longitude": 3.8767337,
    "location": "Montpellier, Occitanie, France",
    "company_count": { "Universit\u00e9 de Montpellier": 1 }
  },
  {
    "latitude": 45.1379165,
    "longitude": 5.3275564,
    "location": "R\u00e9gion de Bourges, France",
    "company_count": { "CGI": 1 }
  },
  {
    "latitude": 45.1524,
    "longitude": 5.74812,
    "location": "Eybens, Auvergne-Rh\u00f4ne-Alpes, France",
    "company_count": { "Schneider Electric": 1 }
  },
  {
    "latitude": 46.603354,
    "longitude": 1.8883335,
    "location": "Rabat Prefecture, Morocco",
    "company_count": { "DELAPLAGE CONSULTING": 1 }
  },
  {
    "latitude": 47.2186371,
    "longitude": -1.5541362,
    "location": "Casablanca, Maroc",
    "company_count": { "GEOFIT": 1 }
  },
  {
    "latitude": 48.1113387,
    "longitude": -1.6800198,
    "location": "Rennes, Bretagne, France",
    "company_count": { "Groupe SII": 1 }
  },
  {
    "latitude": 48.6443057,
    "longitude": 2.7537863,
    "location": "\u00cele-de-France, France",
    "company_count": { "D-AIM": 1 }
  },
  {
    "latitude": 48.8664651,
    "longitude": 2.3578146,
    "location": "Paris Area, France",
    "company_count": { "Optionizr": 1 }
  },
  {
    "latitude": 49.1196964,
    "longitude": 6.1763552,
    "location": "Rabat-Sal\u00e9-K\u00e9nitra, Maroc",
    "company_count": { "Upgrade-Code.org": 1 }
  },
  {
    "latitude": 50.0012314,
    "longitude": 8.2762513,
    "location": "Mainz, Rhineland-Palatinate, Germany",
    "company_count": { "LIME": 1 }
  }
]
